ODOM 1637828484.682824 -7.0 4.0 -0.7853981633974483 
ODOM 1637828484.805467 -7.0 4.0 -0.7853981633974483 
ODOM 1637828484.927813 -7.0 4.0 -0.7853981633974483 
ODOM 1637828485.0717094 -7.0 4.0 -0.7853981633974483 
ODOM 1637828485.1937847 -6.928582215100159 3.9285822151001586 -0.7813981633974483 
ODOM 1637828485.316201 -6.856879331164024 3.857450671919645 -0.7773981633974483 
ODOM 1637828485.4393003 -6.78489249543621 3.7866065085616323 -0.7733981633974483 
ODOM 1637828485.5616503 -6.6403532239728955 3.6454952085008143 -0.7653981633974483 
ODOM 1637828485.6836605 -6.4946896993825725 3.5055447258152435 -0.7573981633974483 
ODOM 1637828485.8062837 -6.274522016430356 3.297373663024441 -0.7453981633974482 
ODOM 1637828485.928509 -6.051872192560433 3.091859537157891 -0.7333981633974482 
ODOM 1637828486.0514293 -5.826772288962703 2.889031941894592 -0.7213981633974482 
ODOM 1637828486.1740444 -5.599254719634314 2.6889200840577763 -0.7093981633974482 
ODOM 1637828486.2971642 -5.369352246712101 2.491552779409182 -0.6973981633974482 
ODOM 1637828486.419917 -5.1370979757548945 2.296958448499629 -0.6853981633974482 
ODOM 1637828486.542793 -4.902525350976379 2.1051651125765107 -0.6733981633974482 
ODOM 1637828486.665236 -4.665668150429185 1.916200389548783 -0.6613981633974482 
ODOM 1637828486.7879336 -4.426560481140902 1.730091490010032 -0.6493981633974482 
ODOM 1637828486.9110837 -4.185236774202731 1.546865213320197 -0.6373981633974481 
ODOM 1637828487.0336814 -3.941731779811467 1.3665479437465078 -0.6253981633974481 
ODOM 1637828487.1587954 -3.6960805622655273 1.1891656466641962 -0.6133981633974481 
ODOM 1637828487.2821147 -3.448318494915755 1.014743864817527 -0.6013981633974481 
ODOM 1637828487.4047124 -3.198481255071718 0.8433077146416869 -0.5893981633974481 
ODOM 1637828487.5279708 -2.9466048188642375 0.6748818826460605 -0.5773981633974481 
ODOM 1637828487.6503558 -2.6927254560648866 0.5094906218594171 -0.5653981633974481 
ODOM 1637828487.7726083 -2.4368797248632066 0.3471577483375151 -0.5533981633974481 
ODOM 1637828487.894471 -2.1791044666023915 0.18790663773363192 -0.5413981633974481 
ODOM 1637828488.0166388 -1.9194368004741977 0.03176022193250985 -0.529398163397448 
ODOM 1637828488.1391082 -1.657914118173844 -0.12125901425179547 -0.517398163397448 
ODOM 1637828488.2612207 -1.3945740785156722 -0.27112903631368945 -0.505398163397448 
ODOM 1637828488.3835328 -1.129454602010344 -0.4178282632289694 -0.493398163397448 
ODOM 1637828488.5073888 -0.8618892826014317 -0.561714467743533 -0.461198163397448 
ODOM 1637828488.630471 -0.5898303272305874 -0.6969119706883911 -0.428998163397448 
ODOM 1637828488.7530322 -0.3135597931331486 -0.8232806059960336 -0.396798163397448 
ODOM 1637828488.875215 -0.03336410390045297 -0.9406893609311521 -0.364598163397448 
ODOM 1637828488.997843 0.25046624746993995 -1.0490165119181476 -0.332398163397448 
ODOM 1637828489.1205037 0.5376369997429851 -1.1481497507380984 -0.300198163397448 
ODOM 1637828489.2591941 0.8278504285216095 -1.2379863009643526 -0.267998163397448 
ODOM 1637828489.3823252 1.1208056549126058 -1.3184330245160314 -0.23579816339744797 
ODOM 1637828489.5047512 1.4161989574629488 -1.3894065182189732 -0.20359816339744796 
ODOM 1637828489.626661 1.7137240870431398 -1.4508332002740096 -0.17139816339744796 
ODOM 1637828489.7612689 2.013072584351119 -1.5026493865429258 -0.13919816339744795 
ODOM 1637828489.8839648 2.3139340997075735 -1.5448013565730174 -0.10699816339744794 
ODOM 1637828490.0061772 2.6159967148111 -1.5772454092917927 -0.07479816339744794 
ODOM 1637828490.129024 2.9197450292567177 -1.6000076910633128 -0.022398163397447927 
ODOM 1637828490.2526004 3.224268626933609 -1.6068296012007306 0.03000183660255208 
ODOM 1637828490.375331 3.5287315504326804 -1.5976924126616527 0.0824018366025521 
ODOM 1637828490.4987226 3.8330952944148673 -1.5725553613400305 0.15500183660255212 
ODOM 1637828490.6210914 4.134833929321258 -1.5254071248424887 0.22760183660255212 
ODOM 1637828490.745572 4.433137129907234 -1.4563155875881835 0.32040183660255217 
ODOM 1637828490.8748243 4.723754286444213 -1.3598785183338702 0.41320183660255216 
ODOM 1637828490.9970274 5.004917117942711 -1.236604586848958 0.5262018366025522 
ODOM 1637828491.1270263 5.270386446735012 -1.082413032376719 0.6392018366025521 
ODOM 1637828491.2498207 5.516776100432978 -0.8992706327238895 0.7522018366025521 
ODOM 1637828491.3726547 5.741527424880594 -0.6889668473108774 0.8854018366025521 
ODOM 1637828491.494189 5.936358195791447 -0.45067750490068365 1.018601836602552 
ODOM 1637828491.6165898 6.097816786697805 -0.18862414502423847 1.151801836602552 
ODOM 1637828491.7384305 6.223042793448873 0.09255068890152607 1.285001836602552 
ODOM 1637828491.860983 6.309817709197251 0.38786569698080053 1.418201836602552 
ODOM 1637828491.9836898 6.35648262513102 0.6912983676359137 1.531201836602552 
ODOM 1637828492.105218 6.368634957789324 0.9980577534922586 1.644201836602552 
ODOM 1637828492.2279758 6.3461783707672605 1.3034331645837878 1.737001836602552 
ODOM 1637828492.3533053 6.295520229901227 1.6054136155470862 1.829801836602552 
ODOM 1637828492.4756088 6.217301377489271 1.900627048722741 1.902401836602552 
ODOM 1637828492.5978553 6.1181353475235545 2.188632705786693 1.954801836602552 
ODOM 1637828492.7207315 6.00402083836153 2.4710491337768334 2.007201836602552 
ODOM 1637828492.8436985 5.8752711093701135 2.7471010623783862 2.059601836602552 
ODOM 1637828492.9663105 5.732615252815225 3.0153243771565594 2.091801836602552 
ODOM 1637828493.0888271 5.581398047201486 3.2788159267864714 2.124001836602552 
ODOM 1637828493.211737 5.421776267029824 3.5373025362942556 2.156201836602552 
ODOM 1637828493.3348029 5.254357430179619 3.789849429103738 2.168201836602552 
ODOM 1637828493.4578898 5.083920157360285 4.040369160929213 2.180201836602552 
ODOM 1637828493.5802405 4.910488991244594 4.288825657362194 2.192201836602552 
ODOM 1637828493.7036133 4.734554648421107 4.5345326922945866 2.184001836602552 
ODOM 1637828493.826418 4.560640995584438 4.781674112046531 2.175801836602552 
ODOM 1637828493.9494548 4.388759726623079 5.030233298922077 2.167601836602552 
ODOM 1637828494.0724835 4.218922398768796 5.28019353989515 2.159401836602552 
ODOM 1637828494.1956348 4.050696270424555 5.532203400302054 2.171401836602552 
ODOM 1637828494.3196805 3.879458208469643 5.782176451125388 2.183401836602552 
ODOM 1637828494.4424613 3.704772869997781 6.030731218778256 2.215601836602552 
ODOM 1637828494.5653374 3.521695169128312 6.274172619210371 2.268001836602552 
ODOM 1637828494.6887038 3.325604599655249 6.508304309854183 2.340601836602552 
ODOM 1637828494.811691 3.11304754375795 6.727595572763294 2.413201836602552 
ODOM 1637828494.9353342 2.8851438466650836 6.930891083907547 2.485801836602552 
ODOM 1637828495.0579522 2.6430942065454675 7.117119792000484 2.558401836602552 
ODOM 1637828495.180777 2.3881738486954083 7.285300561274494 2.631001836602552 
ODOM 1637828495.3153758 2.1210278423384 7.434938294776113 2.723801836602552 
ODOM 1637828495.4384315 1.8411648609934703 7.559176580633281 2.816601836602552 
ODOM 1637828495.5612411 1.550993310732749 7.656946266217768 2.909401836602552 
ODOM 1637828495.6850786 1.253010309682573 7.727405978714563 3.002201836602552 
ODOM 1637828495.8080077 0.9497801986702719 7.769949365691477 3.095001836602552 
ODOM 1637828495.9314976 0.6439124733751416 7.784210313162903 3.187801836602552 
ODOM 1637828496.0561333 0.337240181855521 7.770029142051006 3.300801836602552 
ODOM 1637828496.179036 0.034122821230617106 7.721358147734144 3.413801836602552 
ODOM 1637828496.302502 -0.2615732197096393 7.638818149113729 3.526801836602552 
ODOM 1637828496.4250803 -0.5460762142137305 7.5234619784153 3.639801836602552 
ODOM 1637828496.548026 -0.8157572075217424 7.376761051872881 3.752801836602552 
ODOM 1637828496.6709754 -1.0671763057020507 7.200586601199123 3.865801836602552 
ODOM 1637828496.7940323 -1.2971265529380211 6.997185805241693 3.978801836602552 
ODOM 1637828496.9178386 -1.502674837591567 6.769153126276627 4.091801836602552 
ODOM 1637828497.0620859 -1.681199305269606 6.51939721655621 4.204801836602552 
ODOM 1637828497.1849048 -1.8304228016740935 6.251103817232224 4.317801836602553 
ODOM 1637828497.3081903 -1.9484419186580892 5.967695122894315 4.430801836602553 
ODOM 1637828497.4316072 -2.0337512729932494 5.672786130045813 4.543801836602554 
ODOM 1637828497.5539649 -2.085262708162911 5.370138526310442 4.656801836602554 
ODOM 1637828497.6774035 -2.102319174253857 5.063612708532415 4.7698018366025545 
ODOM 1637828497.8004239 -2.084749013959225 4.757917223666804 4.862601836602555 
ODOM 1637828497.9232671 -2.0389266141216495 4.455165266326929 4.955401836602555 
ODOM 1637828498.0461605 -1.965438809237181 4.158738711286288 5.028001836602556 
ODOM 1637828498.1690269 -1.870891238966128 3.869184023954447 5.080401836602556 
ODOM 1637828498.2921085 -1.761595527953135 3.585725230557304 5.112601836602556 
ODOM 1637828498.4153411 -1.6435423686785184 3.3066688714015195 5.124601836602555 
ODOM 1637828498.5381658 -1.5221491131871556 3.029049207974721 5.136601836602555 
ODOM 1637828498.6609895 -1.3974332418980708 2.752906217028718 5.1486018366025545 
ODOM 1637828498.7837398 -1.2697507216765138 2.4790047492891825 5.140401836602554 
ODOM 1637828498.9055982 -1.144650511970637 2.204793339002255 5.112001836602554 
ODOM 1637828499.027788 -1.027698555903271 1.927877106231374 5.063401836602553 
ODOM 1637828499.1513715 -0.9246126014493681 1.6463574337494533 4.994601836602553 
ODOM 1637828499.2738872 -0.8413465887836964 1.3591854101559977 4.9056018366025524 
ODOM 1637828499.3963897 -0.7840883261336806 1.0665341990559891 4.796401836602552 
ODOM 1637828499.5181673 -0.7591322841763695 0.7701831302713044 4.667001836602552 
ODOM 1637828499.64014 -0.7725894896204041 0.4738885747667574 4.517401836602551 
ODOM 1637828499.7629495 -0.8300569029994501 0.18290909714071957 4.367801836602551 
ODOM 1637828499.88479 -0.9302507912680316 -0.09625527156277924 4.21820183660255 
ODOM 1637828500.0068588 -1.0709329780795511 -0.3573684315412237 4.06860183660255 
ODOM 1637828500.1289167 -1.2489608411807924 -0.5945975190486492 3.91900183660255 
ODOM 1637828500.2517133 -1.4603575137277383 -0.8026432035414534 3.76940183660255 
ODOM 1637828500.8337722 -1.7004007213339944 -0.9768580665184674 3.61980183660255 