ODOM 1637933296.0911343 -7.0 4.0 -0.7853981633974483 
ODOM 1637933296.2162848 -7.0 4.0 -0.7853981633974483 
ODOM 1637933296.3540993 -7.0 4.0 -0.7853981633974483 
ODOM 1637933296.4811492 -7.0 4.0 -0.7853981633974483 
ODOM 1637933296.60783 -7.0 4.0 -0.7853981633974483 
ODOM 1637933296.7352564 -6.928582215100159 3.9285822151001586 -0.7813981633974483 
ODOM 1637933296.864403 -6.856879331164024 3.857450671919645 -0.7773981633974483 
ODOM 1637933296.9956305 -6.78489249543621 3.7866065085616323 -0.7733981633974483 
ODOM 1637933297.1210635 -6.712622859704553 3.716050858531223 -0.7693981633974483 
ODOM 1637933297.2465067 -6.640071580281682 3.645784850717313 -0.7653981633974483 
ODOM 1637933297.371077 -6.56723981798652 3.5758096093745273 -0.7613981633974483 
ODOM 1637933297.4956312 -6.494128738125711 3.506126254105235 -0.7573981633974483 
ODOM 1637933297.6341004 -6.420739510474972 3.436735899841634 -0.7533981633974483 
ODOM 1637933297.7603743 -6.34707330926038 3.3676396568279126 -0.7493981633974482 
ODOM 1637933297.8836749 -6.273131313139583 3.298838630602484 -0.7453981633974482 
ODOM 1637933298.0095735 -6.198914705182942 3.2303339219803004 -0.7413981633974482 
ODOM 1637933298.1337786 -6.1244246728546 3.1621266270352386 -0.7373981633974482 
ODOM 1637933298.2639785 -6.049662407993486 3.094217837082563 -0.7333981633974482 
ODOM 1637933298.3921204 -5.974629106794242 3.0266086386614632 -0.7293981633974482 
ODOM 1637933298.518188 -5.899325969788088 2.959300113517672 -0.7253981633974482 
ODOM 1637933298.6483483 -5.823754201823609 2.892293338586156 -0.7213981633974482 
ODOM 1637933298.793164 -5.747915012047479 2.8255893859738843 -0.7173981633974482 
ODOM 1637933298.9299166 -5.671809613885118 2.759189322942676 -0.7133981633974482 
ODOM 1637933299.0573757 -5.5954392250212726 2.6930942118921224 -0.7093981633974482 
ODOM 1637933299.2110605 -5.5188050673805344 2.627305110342591 -0.7053981633974482 
ODOM 1637933299.3362844 -5.441908367107792 2.5618230709183027 -0.7013981633974482 
ODOM 1637933299.4630132 -5.364750354548609 2.4966491413304914 -0.6973981633974482 
ODOM 1637933299.595062 -5.287332264229541 2.4317843643606403 -0.6933981633974482 
ODOM 1637933299.741494 -5.20965533483838 2.367229777843797 -0.6893981633974482 
ODOM 1637933299.8677065 -5.13172080920434 2.3029864146519685 -0.6853981633974482 
ODOM 1637933299.9927623 -5.053529934278168 2.239055302677596 -0.6813981633974482 
ODOM 1637933300.1215122 -4.975083961112196 2.175437464817106 -0.6773981633974482 
ODOM 1637933300.2482595 -4.89638414484032 2.1121339189545485 -0.6733981633974482 
ODOM 1637933300.375814 -4.817431744657921 2.049145677945306 -0.6693981633974482 
ODOM 1637933300.5118036 -4.738228023801719 1.9864737495998908 -0.6653981633974482 
ODOM 1637933300.6399515 -4.658774249529557 1.9241191366678196 -0.6613981633974482 
ODOM 1637933300.766475 -4.579071693100129 1.8620828368215694 -0.6573981633974482 
ODOM 1637933300.8926055 -4.499121629752637 1.800365842640614 -0.6533981633974482 
ODOM 1637933301.0188012 -4.41892533868639 1.7389691415955435 -0.6493981633974482 
ODOM 1637933301.1470218 -4.338484103040333 1.6778937160322651 -0.6453981633974482 
ODOM 1637933301.2737913 -4.257799209872521 1.6171405431562849 -0.6413981633974482 
ODOM 1637933301.417038 -4.176871950139523 1.5567105950170728 -0.6373981633974481 
ODOM 1637933301.554839 -4.095703618675768 1.4966048384925097 -0.6333981633974481 
ODOM 1637933301.6789193 -4.0142955141728285 1.436824235273418 -0.6293981633974481 
ODOM 1637933301.8175874 -3.9326489391586397 1.3773697418481736 -0.6253981633974481 
ODOM 1637933301.9437213 -3.8507651999766597 1.3182423094874032 -0.6213981633974481 
ODOM 1637933302.0712326 -3.7686456067649687 1.259442884228763 -0.6173981633974481 
ODOM 1637933302.2039764 -3.6862914734353063 1.2009724068618028 -0.6133981633974481 
ODOM 1637933302.3341691 -3.603704117652049 1.1428318129129131 -0.6093981633974481 
ODOM 1637933302.46482 -3.5208848608111274 1.0850220326303568 -0.6053981633974481 
ODOM 1637933302.594837 -3.437835028018884 1.027543990969385 -0.6013981633974481 
ODOM 1637933302.7506764 -3.3545559480708715 0.9703986075774383 -0.5973981633974481 
ODOM 1637933302.8782265 -3.271048953430593 0.9135867967794318 -0.5933981633974481 
ODOM 1637933303.0050316 -3.1873153802081813 0.8571094675631261 -0.5893981633974481 
ODOM 1637933303.135222 -3.103356568139021 0.800967523564584 -0.5853981633974481 
ODOM 1637933303.2876709 -3.0191738605623146 0.7451618630537118 -0.5813981633974481 
ODOM 1637933303.4300165 -2.9347686043995873 0.689693378919887 -0.5773981633974481 
ODOM 1637933303.5559537 -2.850142150133137 0.6345629586576725 -0.5733981633974481 
ODOM 1637933303.6819634 -2.7652958517844266 0.5797714843526165 -0.5693981633974481 
ODOM 1637933303.8085244 -2.6802310668924196 0.5253198326671388 -0.5653981633974481 
ODOM 1637933303.9343245 -2.5949491564918596 0.4712088748265048 -0.5613981633974481 
ODOM 1637933304.0634735 -2.509451485091494 0.4174394766048856 -0.5573981633974481 
ODOM 1637933304.1943033 -2.4237394206522405 0.36401249831150573 -0.5533981633974481 
ODOM 1637933304.326919 -2.3378143345653024 0.310928794776878 -0.5493981633974481 
ODOM 1637933304.4586506 -2.2516776016302233 0.2581892153391266 -0.5453981633974481 
ODOM 1637933304.6024637 -2.165330600032893 0.20579460383039733 -0.5413981633974481 
ODOM 1637933304.7296212 -2.0787747113234953 0.15374579856335663 -0.5373981633974481 
ODOM 1637933304.858687 -1.9920113203944025 0.10204363231777841 -0.533398163397448 
ODOM 1637933304.989814 -1.9050418154580187 0.050688932327219605 -0.529398163397448 
ODOM 1637933305.1153328 -1.8178675880245674 -0.0003174797342154964 -0.525398163397448 
ODOM 1637933305.2438874 -1.7304900328798278 -0.05097478776502205 -0.521398163397448 
ODOM 1637933305.8455129 -1.6429105480628186 -0.10128218124935226 -0.517398163397448 
